{
  "meta": {
    "source": "ypiao.com",
    "count": 6
  },
  "shows": [
    {
      "id": "ypiao-114399",
      "title": "蝶变",
      "type": "limited",
      "venue": "杭州东坡大剧院",
      "city": "Hangzhou",
      "country": "China",
      "lat": 30.255144,
      "lng": 120.15802,
      "start_date": "2026-08-21",
      "end_date": "2026-08-22",
      "ticket_url": "https://www.ypiao.com/t_114399",
      "image": null,
      "tour_name": null,
      "verified": true,
      "source": "ypiao.com"
    },
    {
      "id": "ypiao-114918",
      "title": "剧院魅影",
      "type": "limited",
      "venue": "武汉琴台大剧院",
      "city": "Wuhan",
      "country": "China",
      "lat": 30.563505,
      "lng": 114.25407,
      "start_date": "2026-08-26",
      "end_date": "2026-09-05",
      "ticket_url": "https://www.ypiao.com/t_114918",
      "image": null,
      "tour_name": null,
      "verified": true,
      "source": "ypiao.com"
    },
    {
      "id": "ypiao-113635",
      "title": "玛蒂尔达",
      "type": "limited",
      "venue": "苏州狮山大剧院-大剧场",
      "city": "Suzhou",
      "country": "China",
      "lat": 31.29723,
      "lng": 120.56538,
      "start_date": "2026-06-26",
      "end_date": "2026-06-28",
      "ticket_url": "https://www.ypiao.com/t_113635",
      "image": null,
      "tour_name": null,
      "verified": true,
      "source": "ypiao.com"
    },
    {
      "id": "ypiao-93938",
      "title": "道林格雷的画像",
      "type": "limited",
      "venue": "天桥艺术中心-大剧场",
      "city": "Beijing",
      "country": "China",
      "lat": 39.882404,
      "lng": 116.391438,
      "start_date": "2026-07-30",
      "end_date": "2026-08-02",
      "ticket_url": "https://www.ypiao.com/t_93938",
      "image": null,
      "tour_name": null,
      "verified": true,
      "source": "ypiao.com"
    },
    {
      "id": "ypiao-117409",
      "title": "她的海",
      "type": "limited",
      "venue": "南京保利大剧院大剧场",
      "city": "Nanjing",
      "country": "China",
      "lat": 31.993692,
      "lng": 118.702871,
      "start_date": "2026-07-17",
      "end_date": "2026-07-18",
      "ticket_url": "https://www.ypiao.com/t_117409",
      "image": null,
      "tour_name": null,
      "verified": true,
      "source": "ypiao.com"
    },
    {
      "id": "ypiao-117494",
      "title": "人间失格",
      "type": "limited",
      "venue": "北京保利剧院",
      "city": "Beijing",
      "country": "China",
      "lat": 39.93301,
      "lng": 116.429202,
      "start_date": "2026-07-03",
      "end_date": "2026-07-05",
      "ticket_url": "https://www.ypiao.com/t_117494",
      "image": null,
      "tour_name": null,
      "verified": true,
      "source": "ypiao.com"
    }
  ]
}