{
  "meta": {
    "source": "ypiao.com",
    "count": 5
  },
  "shows": [
    {
      "id": "ypiao-114399",
      "title": "蝶变",
      "type": "limited",
      "venue": "杭州东坡大剧院",
      "city": "Hangzhou",
      "country": "China",
      "lat": 30.255144,
      "lng": 120.15802,
      "start_date": "2026-08-21",
      "end_date": "2026-08-22",
      "ticket_url": "https://www.ypiao.com/t_114399",
      "image": null,
      "tour_name": null,
      "verified": true,
      "source": "ypiao.com"
    },
    {
      "id": "ypiao-93938",
      "title": "道林格雷的画像",
      "type": "limited",
      "venue": "天桥艺术中心-大剧场",
      "city": "Beijing",
      "country": "China",
      "lat": 39.882404,
      "lng": 116.391438,
      "start_date": "2026-07-30",
      "end_date": "2026-08-02",
      "ticket_url": "https://www.ypiao.com/t_93938",
      "image": null,
      "tour_name": null,
      "verified": true,
      "source": "ypiao.com"
    },
    {
      "id": "ypiao-114918",
      "title": "剧院魅影",
      "type": "limited",
      "venue": "武汉琴台大剧院",
      "city": "Wuhan",
      "country": "China",
      "lat": 30.563505,
      "lng": 114.25407,
      "start_date": "2026-08-26",
      "end_date": "2026-09-05",
      "ticket_url": "https://www.ypiao.com/t_114918",
      "image": null,
      "tour_name": null,
      "verified": true,
      "source": "ypiao.com"
    },
    {
      "id": "ypiao-117409",
      "title": "她的海",
      "type": "limited",
      "venue": "南京保利大剧院大剧场",
      "city": "Nanjing",
      "country": "China",
      "lat": 31.993692,
      "lng": 118.702871,
      "start_date": "2026-07-17",
      "end_date": "2026-07-18",
      "ticket_url": "https://www.ypiao.com/t_117409",
      "image": null,
      "tour_name": null,
      "verified": true,
      "source": "ypiao.com"
    },
    {
      "id": "ypiao-116871",
      "title": "危险游戏",
      "type": "limited",
      "venue": "上海共舞台",
      "city": "Shanghai",
      "country": "China",
      "lat": 31.230798,
      "lng": 121.474715,
      "start_date": "2026-07-17",
      "end_date": "2026-07-26",
      "ticket_url": "https://www.ypiao.com/t_116871",
      "image": null,
      "tour_name": null,
      "verified": true,
      "source": "ypiao.com"
    }
  ]
}